[
  {"name": "Hà Nội", "lat": 21.0285, "lon": 105.8542},
  {"name": "TP Hồ Chí Minh", "lat": 10.8231, "lon": 106.6297},
  {"name": "Đà Nẵng", "lat": 16.0544, "lon": 108.2022},
  {"name": "Hải Phòng", "lat": 20.8449, "lon": 106.6881},
  {"name": "Cần Thơ", "lat": 10.0452, "lon": 105.7469},
  {"name": "An Giang", "lat": 10.3840, "lon": 105.4413},
  {"name": "Bà Rịa - Vũng Tàu", "lat": 10.5417, "lon": 107.2430},
  {"name": "Bắc Giang", "lat": 21.2731, "lon": 106.1946},
  {"name": "Bắc Kạn", "lat": 22.1474, "lon": 105.8348},
  {"name": "Bạc Liêu", "lat": 9.2940, "lon": 105.7215},
  {"name": "Bắc Ninh", "lat": 21.1861, "lon": 106.0763},
  {"name": "Bến Tre", "lat": 10.2433, "lon": 106.3756},
  {"name": "Bình Định", "lat": 13.7830, "lon": 109.2218},
  {"name": "Bình Dương", "lat": 11.3254, "lon": 106.4772},
  {"name": "Bình Phước", "lat": 11.7512, "lon": 106.7234},
  {"name": "Bình Thuận", "lat": 11.0904, "lon": 108.0721},
  {"name": "Cà Mau", "lat": 9.1769, "lon": 105.1524},
  {"name": "Cao Bằng", "lat": 22.6663, "lon": 106.2525},
  {"name": "Đắk Lắk", "lat": 12.7100, "lon": 108.2378},
  {"name": "Đắk Nông", "lat": 12.2646, "lon": 107.6098},
  {"name": "Điện Biên", "lat": 21.8042, "lon": 103.2344},
  {"name": "Đồng Nai", "lat": 10.9571, "lon": 106.8438},
  {"name": "Đồng Tháp", "lat": 10.4938, "lon": 105.6882},
  {"name": "Gia Lai", "lat": 13.8078, "lon": 108.1094},
  {"name": "Hà Giang", "lat": 22.8025, "lon": 104.9784},
  {"name": "Hà Nam", "lat": 20.5835, "lon": 105.9230},
  {"name": "Hà Tĩnh", "lat": 18.3559, "lon": 105.9069},
  {"name": "Hải Dương", "lat": 20.9373, "lon": 106.3135},
  {"name": "Hậu Giang", "lat": 9.7840, "lon": 105.6412},
  {"name": "Hòa Bình", "lat": 20.6861, "lon": 105.3131},
  {"name": "Hưng Yên", "lat": 20.6464, "lon": 106.0511},
  {"name": "Khánh Hòa", "lat": 12.2388, "lon": 109.0677},
  {"name": "Kiên Giang", "lat": 10.0125, "lon": 105.0810},
  {"name": "Kon Tum", "lat": 14.3497, "lon": 108.0004},
  {"name": "Lai Châu", "lat": 22.3686, "lon": 103.4704},
  {"name": "Lâm Đồng", "lat": 11.5753, "lon": 108.1429},
  {"name": "Lạng Sơn", "lat": 21.8537, "lon": 106.7614},
  {"name": "Lào Cai", "lat": 22.4856, "lon": 103.9707},
  {"name": "Long An", "lat": 10.6956, "lon": 106.2431},
  {"name": "Nam Định", "lat": 20.4344, "lon": 106.1675},
  {"name": "Nghệ An", "lat": 19.2342, "lon": 104.9200},
  {"name": "Ninh Bình", "lat": 20.2506, "lon": 105.9744},
  {"name": "Ninh Thuận", "lat": 11.6739, "lon": 108.8629},
  {"name": "Phú Thọ", "lat": 21.4208, "lon": 105.2045},
  {"name": "Phú Yên", "lat": 13.1674, "lon": 109.3137},
  {"name": "Quảng Bình", "lat": 17.6102, "lon": 106.3487},
  {"name": "Quảng Nam", "lat": 15.5394, "lon": 108.0191},
  {"name": "Quảng Ngãi", "lat": 15.1214, "lon": 108.8044},
  {"name": "Quảng Ninh", "lat": 21.0064, "lon": 107.2925},
  {"name": "Quảng Trị", "lat": 16.7943, "lon": 107.1861},
  {"name": "Sóc Trăng", "lat": 9.6003, "lon": 105.9800},
  {"name": "Sơn La", "lat": 21.3256, "lon": 103.9188},
  {"name": "Tây Ninh", "lat": 11.3350, "lon": 106.1077},
  {"name": "Thái Bình", "lat": 20.4463, "lon": 106.3365},
  {"name": "Thái Nguyên", "lat": 21.5674, "lon": 105.8252},
  {"name": "Thanh Hóa", "lat": 19.8000, "lon": 105.7851},
  {"name": "Thừa Thiên Huế", "lat": 16.4637, "lon": 107.5909},
  {"name": "Tiền Giang", "lat": 10.4493, "lon": 106.3420},
  {"name": "Trà Vinh", "lat": 9.9477, "lon": 106.3256},
  {"name": "Tuyên Quang", "lat": 21.7767, "lon": 105.2280},
  {"name": "Vĩnh Long", "lat": 10.2397, "lon": 105.9571},
  {"name": "Vĩnh Phúc", "lat": 21.3609, "lon": 105.6057},
  {"name": "Yên Bái", "lat": 21.7229, "lon": 104.8985}
]